     2.11           OBSERVATION DATA    G (GPS)             RINEX VERSION / TYPE
teqc  2012Oct31     UNAVCO Archive Ops  20130102 01:36:05UTCPGM / RUN BY / DATE
Solaris x86 5.10|AMD64|cc SC5.8 -xarch=amd64|=+|=+          COMMENT
BIT 2 OF LLI FLAGS DATA COLLECTED UNDER A/S CONDITION       COMMENT
WHC1                                                        MARKER NAME
40461M001                                                   MARKER NUMBER
Nancy King          U.S. Geological Survey                  OBSERVER / AGENCY
618-01156           TPS NET-G3A         3.6 Feb,28,2012 p1  REC # / TYPE / VERS
383-1860            TPSCR.G3        SCIS                    ANT # / TYPE
 -2488199.3244 -4673487.1517  3544649.2637                  APPROX POSITION XYZ
        0.0000        0.0000        0.0000                  ANTENNA: DELTA H/E/N
     1     1                                                WAVELENGTH FACT L1/2
     7    L1    L2    C1    P2    P1    S1    S2            # / TYPES OF OBSERV
    30.0000                                                 INTERVAL
    16                                                      LEAP SECONDS
Forced Modulo Decimation to 30 seconds                      COMMENT
RINEX file created by UNAVCO GPS Archive.                   COMMENT
For more information contact archive@unavco.org             COMMENT
Monument ID: 19547                                          COMMENT
UNAVCO 4-char name:   WHC1                                  COMMENT
4-char name from Log or data file: WHC1                     COMMENT
Monument location: 33.97988492 -118.03116927 94.2474        COMMENT
Visit ID: 105561                                            COMMENT
End of DB comments                                          COMMENT
 SNR is mapped to RINEX snr flag value [0-9]                COMMENT
  L1 & L2: min(max(int(snr_dBHz/6), 0), 9)                  COMMENT
pseudorange smoothing corrections not applied               COMMENT
rx serial #: 618-01156                                      COMMENT
  2013     1     1     0     0    0.0000000     GPS         TIME OF FIRST OBS
                                                            END OF HEADER
 13  1  1  0  0  0.0000000  0  8G11G20G01G14G31G22G32G19
 113490242.040 8  88433955.83246  21596463.284    21596460.921    21596462.216
        49.000          37.0004
 126775646.107 6  98786205.73642  24124599.017    24124597.883    24124597.738
        38.000          17.0004
 114631245.806 7  89323064.02746  21813590.936    21813592.187    21813589.561
        47.000          36.0004
 115399989.878 7  89922088.30345  21959876.093    21959873.655    21959874.742
        47.000          34.0004
 108894666.428 8  84852987.62047  20721965.345    20721963.577    20721964.851
        52.000          43.0004
 116415838.511 7  90713646.71645  22153191.433    22153186.868    22153189.660
        47.000          35.0004
 116517273.720 7  90792687.80445  22172490.653    22172489.826    22172489.004
        47.000          34.0004
 128881398.294 6 100427068.09543  24525312.068    24525311.908    24525311.162
        38.000          21.0004
 13  1  1  0  0 30.0000000  0  8G11G20G01G14G31G22G32G19
 113448435.414 8  88401379.26046  21588507.400    21588505.747    21588506.455
        49.000          37.0004
 126642804.883 6  98682693.14942  24099320.278    24099319.415    24099317.807
        38.000          17.0004
 114527073.608 7  89241890.91246  21793767.423    21793768.476    21793766.658
        46.000          37.0004
 115424527.731 7  89941208.70345  21964545.766    21964543.095    21964544.846
        47.000          34.0004
 108798839.452 8  84778317.28247  20703729.816    20703728.151    20703729.367
        50.000          43.0004
 116428039.406 7  90723153.88245  22155512.880    22155509.220    22155511.390
        47.000          34.0004
 116417086.595 7  90714619.95045  22153425.265    22153424.377    22153423.621
        47.000          34.0004
 128916766.498 6 100454627.68243  24532042.273    24532042.663    24532041.160
        39.000          21.0004
 13  1  1  0  1  0.0000000  0  8G11G20G01G14G31G22G32G19
 113407192.317 7  88369241.81646  21580658.865    21580657.263    21580658.229
        47.000          37.0004
 126509954.754 6  98579173.64442  24074039.799    24074039.987    24074037.576
        38.000          17.0004
 114423367.505 8  89161081.00146  21774032.908    21774034.321    21774031.906
        48.000          37.0004
 115449180.976 7  89960419.03945  21969237.271    21969235.081    21969236.260
        47.000          33.0004
 108703555.270 8  84704069.90647  20685598.079    20685596.029    20685597.433
        51.000          43.0004
 116440473.061 7  90732842.42845  22157878.628    22157875.345    22157877.391
        47.000          34.0004
 116317004.119 7  90636633.67045  22134380.090    22134379.867    22134378.745
        46.000          34.0004
 128952161.222 6 100482207.95343  24538777.962    24538776.822    24538776.561
        39.000          20.0004
 13  1  1  0  1 30.0000000  0  8G11G20G01G14G31G22G32G19
 113366512.015 8  88337542.90246  21572917.996    21572916.343    21572916.959
        49.000          37.0004
 126377096.936 6  98475648.18342  24048757.738    24048757.681    24048755.426
        37.000          16.0004
 114320130.084 7  89080636.30346  21754387.056    21754389.031    21754386.332
        47.000          36.0004
 115473947.852 7  89979717.92645  21973949.511    21973947.907    21973949.029
        46.000          34.0004
 108608816.364 8  84630247.42047  20667569.389    20667567.689    20667568.723
        51.000          43.0004
 116453139.648 7  90742712.47745  22160288.939    22160285.983    22160286.972
        46.000          34.0004
 116217027.501 7  90558729.86145  22115355.184    22115354.055    22115354.019
        47.000          34.0004
 128987580.076 6 100509806.99343  24545519.097    24545517.893    24545516.843
        40.000          21.0004
 13  1  1  0  2  0.0000000  0  8G11G20G01G14G31G22G32G19
 113326392.398 8  88306280.88946  21565283.625    21565281.421    21565282.465
        49.000          37.0004
 126244230.014 6  98372115.60842  24023473.875    24023474.286    24023472.769
        36.000          16.0004
 114217361.201 7  89000556.69046  21734830.715    21734831.935    21734829.797
        46.000          37.0004
 115498824.790 8  89999102.55845  21978684.274    21978681.219    21978683.276
        48.000          33.0004
 108514622.086 8  84556849.33047  20649644.771    20649643.084    20649644.150
        51.000          43.0004
 116466037.116 7  90752762.43345  22162743.845    22162739.647    22162741.754
        47.000          34.0004
 116117155.044 7  90480907.20845  22096350.235    22096349.150    22096349.364
        47.000          34.0004
 129023017.659 6 100537420.65343  24552261.962    24552260.438    24552259.787
        40.000          21.0004
 13  1  1  0  2 30.0000000  0  8G11G20G01G14G31G22G32G19
 113286838.334 8  88275459.56246  21557756.737    21557754.024    21557755.778
        49.000          37.0004
 126111360.319 6  98268580.92142  23998189.756    23998188.866    23998187.859
        37.000          16.0004
 114115068.593 8  88920848.19646  21715365.569    21715366.514    21715364.414
        48.000          37.0004
 115523815.783 7  90018576.08645  21983439.382    21983437.031    21983438.538
        47.000          33.0004
 108420979.761 8  84483881.32247  20631825.468    20631823.626    20631824.857
        49.000          43.0004
 116479171.228 7  90762996.78145  22165242.341    22165238.841    22165240.833
        46.000          34.0004
 116017392.989 8  90403170.58945  22077366.429    22077364.839    22077364.887
        48.000          34.0004
 129058476.628 6 100565051.00543  24559009.185    24559008.277    24559006.755
        38.000          20.0004
 13  1  1  0  3  0.0000000  0  8G11G20G01G14G31G22G32G19
 113247846.837 8  88245076.59946  21550336.622    21550334.571    21550336.004
        49.000          37.0004
 125978486.780 6  98165043.23642  23972903.091    23972903.992    23972902.759
        36.000          15.0004
 114013252.026 7  88841510.66746  21695990.334    21695991.742    21695989.308
        46.000          37.0004
 115548917.224 7  90038135.67045  21988216.090    21988213.488    21988215.469
        47.000          33.0004
 108327888.562 8  84411342.76147  20614110.697    20614108.870    20614110.417
        50.000          43.0004
 116492539.753 7  90773413.77245  22167787.132    22167783.451    22167785.304
        47.000          34.0004
 115917739.915 7  90325518.89445  22058402.554    22058401.595    22058401.225
        47.000          34.0004
 129093952.078 6 100592694.19143  24565760.199    24565759.904    24565759.362
        38.000          20.0004
 13  1  1  0  3 30.0000000  0  9G11G20G01G14G31G22G32G23G19
 113209413.780 8  88215128.78946  21543023.092    21543021.116    21543021.678
        49.000          37.0004
 125845606.310 6  98061500.16142  23947617.945    23947617.628    23947616.832
        38.000          15.0004
 113911909.675 7  88762542.64046  21676705.261    21676706.321    21676704.382
        46.000          37.0004
 115574123.446 7  90057776.89645  21993012.720    21993010.726    21993011.868
        45.000          33.0004
 108235346.262 8  84339231.91047  20596500.714    20596498.553    20596500.150
        50.000          43.0004
 116506138.906 7  90784010.50445  22170374.681    22170370.943    22170372.910
        46.000          34.0004
 115818192.605 7  90247949.60845  22039459.245    22039458.148    22039458.273
        47.000          34.0004
 132742733.790 6                  25260103.084
        36.000
 129129436.979 6 100620344.72642  24572513.399    24572512.453    24572510.684
        36.000          17.0004
 13  1  1  0  4  0.0000000  0  9G11G20G01G14G31G22G32G23G19
 113171539.506 8  88185616.39346  21535816.228    21535813.616    21535815.431
        50.000          37.0004
 125712720.976 6  97957953.24242  23922331.257    23922329.255    23922328.878
        39.000          17.0004
 113811045.003 7  88683946.83246  21657511.410    21657512.869    21657510.503
        47.000          37.0004
 115599434.407 7  90077499.75545  21997829.353    21997826.708    21997828.107
        47.000          33.0004
 108143355.950 8  84267551.19247  20578995.473    20578993.502    20578994.757
        51.000          42.0004
 116519970.402 7  90794788.28345  22173006.514    22173002.976    22173005.361
        46.000          33.0004
 115718753.199 7  90170464.40645  22020537.100    22020535.850    22020535.771
        47.000          35.0004
 132618505.740 6 103339098.5434   25236462.368    25236460.985    25236461.971
        39.000           5.0004
 129164930.266 5 100648001.73542  24579266.138    24579265.604    24579264.080
        35.000          17.0004
 13  1  1  0  4 30.0000000  0  9G11G20G01G14G31G22G32G23G19
 113134222.591 8  88156538.30946  21528714.746    21528712.860    21528713.570
        49.000          37.0004
 125579831.078 6  97854402.79642  23897043.015    23897041.056    23897041.189
        39.000          17.0004
 113710659.164 7  88605724.14146  21638408.796    21638410.004    21638407.805
        47.000          38.0004
 115624847.683 7  90097302.32745  22002665.031    22002662.644    22002663.722
        45.000          33.0004
 108051918.281 8  84196301.10847  20561595.074    20561593.409    20561594.425
        51.000          43.0004
 116534033.117 7  90805746.22645  22175682.947    22175679.005    22175681.022
        46.000          33.0004
 115619421.477 8  90093063.11145  22001634.842    22001633.657    22001633.238
        48.000          35.0004
 132494383.920 6 103242380.36841  25212843.197    25212841.033    25212842.719
        40.000           9.0004
 129200427.739 5 100675662.06642  24586022.984    24586021.207    24586020.496
        35.000          15.0004
 13  1  1  0  5  0.0000000  0  9G11G20G01G14G31G22G32G23G19
 113097460.683 7  88127892.68446  21521719.185    21521717.043    21521717.941
        45.000          37.0004
 125446935.753 6  97750848.15542  23871753.227    23871752.473    23871752.392
        38.000          17.0004
 113610752.561 7  88527874.88346  21619397.165    21619398.769    21619396.351
        44.000          37.0004
 115650360.274 7  90117182.29745  22007519.457    22007517.562    22007518.680
        43.000          32.0004
 107961033.339 7  84125481.71347  20544300.702    20544298.678    20544300.078
        47.000          42.0004
 116548325.595 7  90816883.19545  22178402.952    22178398.453    22178401.094
        44.000          33.0004
 115520196.646 7  90015745.10745  21982753.103    21982751.721    21982751.245
        45.000          35.0004
 132370366.811 6 103145743.77741  25189243.998    25189242.810    25189242.503
        40.000           9.0004
 129235924.683 6 100703322.01142  24592777.382    24592776.033    24592775.715
        36.000          15.0004
 13  1  1  0  5 30.0000000  0  9G11G20G01G14G31G22G32G23G19
 113061256.040 8  88099681.30446  21514829.667    21514827.370    21514828.835
        49.000          37.0004
 125314038.526 6  97647291.97842  23846463.732    23846462.680    23846462.934
        39.000          17.0004
 113511329.931 7  88450402.73946  21600477.949    21600478.886    21600476.754
        47.000          38.0004
 115675973.343 7  90137140.53645  22012393.648    22012391.462    22012392.580
        45.000          32.0004
 107870704.964 8  84055095.99847  20527111.463    20527109.736    20527111.004
        50.000          43.0004
 116562850.332 7  90828201.16045  22181166.317    22181163.113    22181165.504
        46.000          33.0004
 115421082.046 7  89938512.99045  21963892.186    21963890.673    21963890.693
        47.000          35.0004
 132246457.580 6 103049191.27442  25165665.216    25165663.862    25165663.149
        39.000          15.0004
 129271421.047 6 100730981.46242  24599532.337    24599530.722    24599529.990
        36.000          15.0004
 13  1  1  0  6  0.0000000  0  9G11G20G01G14G31G22G32G23G19
 113025608.670 8  88071904.14846  21508045.807    21508043.740    21508045.277
        50.000          37.0004
 125181141.303 6  97543735.79842  23821174.848    23821172.993    23821172.755
        39.000          17.0004
 113412394.102 7  88373309.92046  21581650.866    21581652.251    21581649.689
        46.000          38.0004
 115701686.152 7  90157176.51045  22017286.877    22017284.216    22017285.788
        47.000          32.0004
 107780935.856 8  83985146.07447  20510028.949    20510027.110    20510028.315
        51.000          43.0004
 116577608.462 7  90839700.97245  22183974.917    22183971.061    22183973.011
        46.000          33.0004
 115322079.308 7  89861368.02645  21945052.519    21945051.272    21945050.664
        47.000          35.0004
 132122657.388 6 102952723.72142  25142105.866    25142104.454    25142104.560
        39.000          15.0004
 129306915.072 5 100758639.03442  24606287.309    24606286.296    24606285.044
        35.000          15.0004
 13  1  1  0  6 30.0000000  0  9G11G20G01G14G31G22G32G23G19
 112990515.419 7  88044558.78846  21501367.945    21501366.022    21501367.036
        47.000          37.0004
 125048242.851 6  97440178.73942  23795883.609    23795883.283    23795882.559
        38.000          17.0004
 113313944.887 7  88296596.28546  21562916.367    21562917.938    21562915.159
        46.000          38.0004
 115727495.022 7  90177287.32245  22022197.725    22022196.062    22022196.742
        45.000          32.0004
 107691725.481 8  83915631.53147  20493053.289    20493050.795    20493052.595
        51.000          43.0004
 116592598.078 7  90851381.16045  22186827.803    22186823.685    22186825.653
        46.000          34.0004
 115223187.031 7  89784309.15445  21926233.724    21926232.509    21926232.310
        47.000          35.0004
 131998963.843 6 102856339.35142  25118567.392    25118567.524    25118566.605
        39.000          16.0004
 129342401.858 5 100786291.02742  24613038.528    24613038.841    24613036.369
        35.000          16.0004
 13  1  1  0  7  0.0000000  0  9G11G20G01G14G31G22G32G23G19
 114531397.044 8  89245245.78846  21794587.956    21794585.349    21794587.009
        49.000          37.0004
 126490768.841 6  98564225.10343  24070388.976    24070387.627    24070386.214
        38.000          18.0004
 114791407.712 8  89447866.06146  21844068.249    21844069.871    21844067.104
        48.000          38.0004
 117328817.920 7  91425071.41545  22326920.038    22326916.827    22326919.372
        47.000          32.0004
 109178498.120 8  85074155.69547  20775976.177    20775974.123    20775975.696
        50.000          43.0004
 118183238.733 7  92090841.40845  22489516.558    22489512.135    22489514.911
        46.000          33.0004
 116699829.513 7  90934939.70945  22207229.511    22207228.514    22207228.246
        46.000          35.0004
 133450801.913 6 103987641.90642  25394843.466    25394842.115    25394842.534
        40.000          16.0004
 130953297.248 6 102041534.12642  24919582.696    24919581.150    24919580.590
        36.000          16.0004
 13  1  1  0  7 30.0000000  0  9G11G20G01G14G31G22G32G23G19
 114497412.017 7  89218763.96646  21788121.003    21788118.841    21788119.744
        47.000          37.0004
 126357872.635 6  98460669.74043  24045098.332    24045098.121    24045096.841
        38.000          18.0004
 114693939.468 7  89371916.80346  21825520.456    21825522.250    21825519.571
        47.000          38.0004
 117354816.390 7  91445329.96545  22331867.544    22331864.614    22331866.258
        45.000          32.0004
 109090410.569 8  85005516.08347  20759214.004    20759211.709    20759213.200
        51.000          43.0004
 118198692.947 7  92102883.62745  22492457.413    22492453.721    22492455.787
        46.000          33.0004
 116601162.333 8  90858056.21946  22188453.853    22188452.772    22188452.677
        48.000          36.0004
 133327324.999 6 103891426.26642  25371346.584    25371344.729    25371344.435
        39.000          17.0004
 130988762.139 6 102069169.06942  24926331.033    24926331.172    24926330.637
        38.000          13.0004
 13  1  1  0  8  0.0000000  0  9G11G20G01G14G31G22G32G23G19
 114463978.060 8  89192711.54946  21781758.509    21781756.567    21781757.921
        49.000          37.0004
 126224977.100 6  98357114.94343  24019808.118    24019808.665    24019806.696
        37.000          18.0004
 114596962.835 7  89296350.62846  21807066.672    21807068.095    21807065.197
        47.000          38.0004
 117380905.794 7  91465659.37145  22336832.020    22336828.743    22336830.582
        45.000          32.0004
 109002885.087 8  84937314.44447  20742558.487    20742555.901    20742557.910
        52.000          43.0004
 118214377.579 7  92115105.41245  22495441.814    22495437.845    22495439.916
        46.000          33.0004
 116502607.021 7  90781259.91745  22169698.783    22169697.833    22169697.734
        47.000          35.0004
 133203955.059 6 103795294.00342  25347869.392    25347867.200    25347867.518
        39.000          17.0004
 131024209.915 6 102096790.70442  24933076.158    24933076.457    24933075.335
        38.000          16.0004
 13  1  1  0  8 30.0000000  0  9G11G20G01G14G31G22G32G23G19
 114431096.903 8  89167089.88046  21775501.361    21775499.528    21775500.503
        49.000          37.0004
 126092085.939 6  98253563.51543  23994520.903    23994518.816    23994519.533
        40.000          19.0004
 114500482.480 7  89221171.16046  21788707.065    21788708.775    21788705.977
        47.000          38.0004
 117407087.434 7  91486060.65945  22341814.468    22341811.305    22341813.768
        46.000          32.0004
 108915925.794 8  84869553.99947  20726010.335    20726008.235    20726009.753
        52.000          44.0004
 118230295.519 7  92127509.00645  22498471.511    22498466.534    22498469.638
        46.000          33.0004
 116404167.156 7  90704553.56946  22150966.357    22150965.193    22150964.901
        47.000          36.0004
 133080694.649 6 103699247.06942  25324413.233    25324413.129    25324411.267
        38.000          14.0004
 131059640.560 6 102124398.96342  24939818.569    24939817.866    24939815.963
        36.000          16.0004
 13  1  1  0  9  0.0000000  0  9G11G20G01G14G31G22G32G23G19
 114398770.192 8  89141900.24246  21769350.028    21769347.603    21769349.129
        49.000          37.0004
 125959202.644 6  98150018.20943  23969232.765    23969231.751    23969232.547
        38.000          19.0004
 114404502.581 7  89146381.64946  21770442.187    21770443.728    21770441.188
        47.000          38.0004
 117433362.027 7  91506534.36445  22346813.973    22346811.870    22346813.103
        45.000          32.0004
 108829536.141 8  84802237.43047  20709570.921    20709568.633    20709570.584
        51.000          44.0004
 118246449.312 7  92140096.36345  22501545.253    22501541.557    22501543.127
        47.000          34.0004
 116305845.781 8  90627939.54245  22132256.885    22132254.898    22132255.352
        48.000          35.0004
 132957546.460 6 103603287.56042  25300979.153    25300978.505    25300977.560
        38.000          14.0004
 131095053.838 5 102151993.65342  24946559.201    24946556.821    24946556.782
        34.000          13.0004
 13  1  1  0  9 30.0000000  0  9G11G20G01G14G31G22G32G23G19
 114366996.713 8  89117141.69346  21763303.957    21763301.419    21763303.041
        50.000          37.0004
 125826327.813 6  98046479.49043  23943948.044    23943945.701    23943946.524
        37.000          18.0004
 114309024.939 7  89071983.50746  21752273.688    21752274.923    21752272.653
        47.000          38.0004
 117459727.885 7  91527079.18645  22351831.025    22351828.656    22351829.773
        46.000          32.0004
 108743717.493 8  84735365.77947  20693240.421    20693237.869    20693239.773
        52.000          43.0004
 118262838.480 7  92152867.11445  22504663.737    22504660.278    22504662.042
        46.000          34.0004
 116207643.606 7  90551418.40146  22113569.602    22113568.258    22113567.679
        47.000          36.0004
 132834510.689 6 103507415.68342  25277567.043    25277565.611    25277565.336
        38.000          14.0004
 131130446.374 5 102179572.22142  24953293.502    24953292.876    24953291.658
        34.000          13.0004
 13  1  1  0 10  0.0000000  0  9G11G20G01G14G31G22G32G23G19
 114335772.410 8  89092811.07846  21757362.143    21757359.766    21757361.020
        48.000          37.0004
 125693459.275 6  97942945.67043  23918664.189    23918662.522    23918662.391
        37.000          18.0004
 114214048.061 8  88997975.58046  21734200.669    21734201.492    21734199.523
        49.000          38.0004
 117486180.461 7  91547691.58045  22356863.967    22356863.226    22356863.614
        45.000          31.0004
 108658467.705 8  84668937.40447  20677017.692    20677015.378    20677017.449
        51.000          44.0004
 118279459.895 7  92165818.85845  22507826.559    22507823.816    22507824.932
        45.000          33.0004
 116109558.038 8  90474988.13646  22094903.983    22094903.291    22094903.040
        48.000          36.0004
 132711584.284 6 103411628.96342  25254173.713    25254172.835    25254172.730
        38.000          14.0004
 131165812.045 5 102207129.83541  24960022.371    24960022.684    24960021.986
        32.000           8.0004
 13  1  1  0 10 30.0000000  0  9G11G20G01G14G31G22G32G23G19
 114305096.927 8  89068908.11346  21751524.636    21751522.258    21751523.776
        48.000          37.0004
 125560598.981 6  97839418.27942  23893381.747    23893380.302    23893379.779
        39.000          17.0004
 114119574.678 8  88924359.97546  21716222.772    21716223.950    21716222.067
        48.000          38.0004
 117512719.112 7  91568371.05445  22361914.550    22361913.725    22361913.462
        45.000          32.0004
 108573788.891 8  84602953.94547  20660903.685    20660901.579    20660903.014
        50.000          43.0004
 118296314.386 7  92178952.21845  22511033.696    22511029.704    22511032.161
        45.000          32.0004
 116011590.891 8  90398650.13146  22076262.010    22076260.453    22076260.893
        48.000          36.0004
 132588768.025 6 103315928.08142  25230802.025    25230801.553    25230800.984
        37.000          15.0004
 131201149.654 5 102234665.64941  24966747.286    24966748.644    24966744.864
        31.000           8.0004
 13  1  1  0 11  0.0000000  0  9G11G20G01G14G31G22G32G23G19
 114274970.225 8  89045432.77046  21745791.504    21745789.454    21745790.577
        48.000          37.0004
 125427748.337 6  97735898.38143  23868100.455    23868100.546    23868099.156
        39.000          18.0004
 114025607.370 8  88851138.71646  21698341.202    21698342.452    21698340.153
        49.000          38.0004
 117539343.003 7  91589116.96045  22366981.170    22366979.144    22366979.897
        46.000          31.0004
 108489683.104 8  84537417.00747  20644898.792    20644896.812    20644898.339
        51.000          43.0004
 118313402.617 7  92192267.71445  22514285.734    22514282.491    22514283.735
        46.000          32.0004
 115913743.494 7  90322405.44045  22057642.115    22057640.585    22057640.892
        47.000          35.0004
 132466063.125 5 103220313.87542  25207452.869    25207452.823    25207451.689
        34.000          15.0004
 131236455.306 5 102262177.4414   24973466.341    24973465.537    24973463.468
        31.000           5.0004
 13  1  1  0 11 30.0000000  0  9G11G20G01G14G31G22G32G23G19
 114245392.091 8  89022384.87746  21740162.833    21740160.740    21740161.565
        49.000          36.0004
 125294909.229 6  97632387.49343  23842823.108    23842821.843    23842820.734
        40.000          18.0004
 113932148.715 8  88778313.81846  21680556.494    21680557.790    21680555.522
        48.000          38.0004
 117566051.875 7  91609929.05345  22372064.431    22372061.459    22372062.332
        45.000          31.0004
 108406152.324 8  84472328.11947  20629003.421    20629001.504    20629002.831
        51.000          44.0004
 118330725.236 7  92205765.84945  22517582.083    22517578.327    22517580.281
        45.000          32.0004
 115816017.483 8  90246255.33646  22039045.492    22039043.949    22039043.611
        48.000          36.0004
 132343470.387 5 103124787.17642  25184124.316    25184123.464    25184122.609
        33.000          13.0004
 131271728.572 5 102289663.1054   24980179.286    24980177.153    24980177.117
        31.000           5.0004
 13  1  1  0 12  0.0000000  0  9G11G20G01G14G31G22G32G23G19
 114216361.746 8  88999763.84746  21734638.775    21734636.745    21734637.708
        50.000          36.0004
 125162083.174 6  97528886.78343  23817546.658    23817545.132    23817544.105
        39.000          20.0004
 113839200.950 7  88705887.01746  21662869.028    21662870.511    21662868.107
        47.000          39.0004
 117592844.253 7  91630806.25745  22377162.443    22377159.684    22377160.763
        45.000          31.0004
 108323198.224 8  84407688.60747  20613217.723    20613215.608    20613217.352
        52.000          44.0004
 118348282.732 7  92219446.99645  22520923.123    22520919.592    22520920.932
        45.000          33.0004
 115718414.174 7  90170200.85846  22020471.992    22020470.621    22020470.342
        47.000          36.0004
 132220990.330 5 103029348.23742  25160817.098    25160816.965    25160816.629
        33.000          13.0004
 131306966.241 5 102317120.9324   24986881.690    24986881.484    24986881.064
        31.000           3.0004
 13  1  1  0 12 30.0000000  0  9G11G20G01G14G31G22G32G23G19
 114187878.449 8  88977569.07946  21729218.078    21729216.130    21729217.243
        49.000          36.0004
 125029271.358 6  97425397.17343  23792272.926    23792271.117    23792271.296
        39.000          20.0004
 113746765.872 7  88633859.71446  21645279.043    21645280.978    21645277.870
        47.000          39.0004
 117619719.180 7  91651747.77645  22382276.377    22382273.486    22382275.253
        46.000          31.0004
 108240821.886 8  84343499.28447  20597542.688    20597540.015    20597541.983
        52.000          44.0004
 118366075.137 7  92233311.20345  22524309.260    22524305.262    22524307.382
        45.000          33.0004
 115620934.372 8  90094242.62046  22001921.789    22001920.817    22001920.324
        48.000          36.0004
 132098623.201 6 102933997.35241  25137530.964    25137530.556    25137530.267
        36.000           8.0004
 131342165.787 5 102344549.1254   24993583.913    24993582.489    24993580.118
        32.000           3.0004
 13  1  1  0 13  0.0000000  0  9G11G20G01G14G31G22G32G23G19
 114159937.965 8  88955797.28946  21723901.628    21723899.017    21723900.373
        48.000          36.0004
 124896471.906 6  97321917.18243  23767002.520    23767001.229    23767000.778
        39.000          20.0004
 113654842.352 7  88562231.02746  21627786.453    21627788.071    21627785.444
        47.000          38.0004
 117646672.490 7  91672750.38245  22387405.111    22387402.422    22387403.801
        46.000          31.0004
 108159021.670 8  84279758.89247  20581976.228    20581974.078    20581975.632
        51.000          44.0004
 118384099.595 7  92247356.22845  22527739.188    22527735.841    22527737.433
        46.000          32.0004
 115523576.011 8  90018379.01046  21983395.340    21983393.892    21983393.796
        48.000          36.0004
 131976366.356 6 102838732.39341  25114266.702    25114264.568    25114264.818
        37.000          10.0004
 131377321.664 5 102371943.2934   25000272.959    25000272.109    25000271.227
        31.000           4.0004
 13  1  1  0 13 30.0000000  0  9G11G20G01G14G31G22G32G23G19
 114132541.911 8  88934449.71846  21718688.188    21718685.742    21718687.108
        48.000          36.0004
 124763688.143 6  97218449.42643  23741733.799    23741733.593    23741731.750
        38.000          19.0004
 113563434.688 8  88491004.30346  21610392.689    21610393.907    21610391.541
        48.000          39.0004
 117673704.797 7  91693814.52945  22392549.689    22392546.982    22392548.637
        45.000          31.0004
 108077801.352 8  84216470.37547  20566520.086    20566518.092    20566519.761
        51.000          44.0004
 118402358.225 7  92261583.72145  22531213.212    22531210.162    22531211.911
        45.000          32.0004
 115426342.543 8  89942612.71346  21964892.205    21964891.029    21964890.742
        48.000          36.0004
 131854222.463 6 102743555.39741  25091022.933    25091022.369    25091021.725
        37.000          10.0004
 131412433.612 5 102399303.1684   25006954.546    25006954.333    25006953.029
        32.000           4.0004
 13  1  1  0 14  0.0000000  0  9G11G20G01G14G31G22G32G23G19
 114105688.197 8  88913524.76246  21713577.968    21713575.669    21713577.035
        48.000          36.0004
 124630920.366 6  97114994.13943  23716468.619    23716467.890    23716467.686
        39.000          19.0004
 113472543.531 7  88420180.04746  21593096.291    21593097.844    21593094.978
        47.000          38.0004
 117700813.912 7  91714938.52945  22397707.877    22397706.056    22397706.454
        45.000          31.0004
 107997160.829 8  84153633.63347  20551175.223    20551172.366    20551174.383
        52.000          44.0004
 118420850.332 7  92275993.14645  22534731.788    22534728.852    22534730.188
        45.000          32.0004
 115329233.608 7  89866943.44946  21946412.728    21946412.116    21946411.631
        47.000          36.0004
 131732190.559 6 102648465.70941  25067801.523    25067800.136    25067799.247
        37.000           8.0004
 131447497.446 4 102426625.6514   25013625.061    25013627.253    25013623.339
        28.000           1.0004
 13  1  1  0 14 30.0000000  0  8G11G20G01G14G31G22G32G23
 114079375.704 8  88893021.53446  21708570.677    21708569.273    21708569.791
        48.000          37.0004
 124498169.275 6  97011551.86743  23691207.100    23691205.627    23691205.837
        39.000          20.0004
 113382170.609 7  88349759.61746  21575898.533    21575900.508    21575897.625
        46.000          39.0004
 117727998.593 7  91736121.42945  22402880.296    22402878.990    22402879.811
        44.000          30.0004
 107917101.127 8  84091249.49247  20535940.077    20535937.744    20535939.341
        50.000          44.0004
 118439575.636 7  92290584.27645  22538295.603    22538291.564    22538294.328
        45.000          32.0004
 115232250.155 8  89791371.98346  21927957.947    21927956.324    21927956.476
        49.000          36.0004
 131610270.835 6 102553463.44941  25044599.621    25044600.316    25044599.128
        37.000           8.0004
 13  1  1  0 15  0.0000000  0  8G11G20G01G14G31G22G32G23
 114053605.360 8  88872940.76046  21703667.054    21703665.047    21703666.149
        50.000          37.0004
 124365438.967 6  96908125.76243  23665948.721    23665947.940    23665947.278
        39.000          20.0004
 113292320.290 8  88279746.41446  21558800.798    21558802.828    21558799.862
        48.000          39.0004
 117755260.067 7  91757364.15145  22408068.032    22408066.445    22408067.366
        44.000          30.0004
 107837625.953 8  84029320.82647  20520816.296    20520814.053    20520815.801
        51.000          44.0004
 118458536.973 7  92305359.32045  22541903.869    22541900.645    22541902.410
        45.000          32.0004
 115135395.650 8  89715900.97146  21909527.480    21909525.639    21909525.855
        49.000          36.0004
 131488466.162 6 102458550.90841  25021421.408    25021420.763    25021420.207
        37.000           9.0004
 13  1  1  0 15 30.0000000  0  8G11G20G01G14G31G22G32G23
 114028374.707 8  88853280.52246  21698865.687    21698863.333    21698864.990
        48.000          36.0004
 124232728.436 6  96804715.08943  23640694.658    23640693.988    23640692.988
        38.000          20.0004
 113202992.347 8  88210140.24346  21541802.103    21541803.900    21541801.146
        48.000          39.0004
 117782595.069 7  91778664.15745  22413270.463    22413267.891    22413269.211
        45.000          30.0004
 107758734.429 8  83967846.94247  20505803.964    20505801.651    20505803.337
        51.000          44.0004
 118477732.219 7  92320316.63045  22545556.719    22545552.555    22545553.994
        45.000          32.0004
 115038669.135 8  89640529.68946  21891120.404    21891119.058    21891119.067
        49.000          36.0004
 131366774.677 6 102363726.53441  24998264.007    24998263.392    24998262.203
        38.000           9.0004
 13  1  1  0 16  0.0000000  0  9G11G20G01G14G31G22G32G23G25
 114003685.320 8  88834042.05746  21694167.753    21694165.509    21694166.640
        49.000          37.0004
 124100041.541 6  96701322.85143  23615445.194    23615443.512    23615444.189
        39.000          20.0004
 113114191.084 8  88140944.48046  21524903.843    21524905.608    21524902.874
        48.000          39.0004
 117810004.823 7  91800022.43845  22418486.357    22418483.894    22418484.752
        45.000          30.0004
 107680430.429 8  83906830.88447  20490903.112    20490900.834    20490902.472
        52.000          44.0004
 118497163.803 7  92335458.13145  22549253.691    22549250.257    22549252.999
        44.000          31.0004
 114942074.119 8  89565260.88446  21872738.769    21872737.731    21872737.245
        48.000          36.0004
 131245199.229 6 102268992.54342  24975129.349    24975127.651    24975127.649
        39.000          13.0004
 137529627.205 5                  26171018.021
        31.000
 13  1  1  0 16 30.0000000  0  9G11G20G01G14G31G22G32G23G25
 113979533.347 8  88815222.37046  21689571.426    21689569.463    21689570.413
        49.000          37.0004
 123967377.250 6  96597948.18343  23590199.991    23590197.898    23590198.467
        39.000          20.0004
 113025915.976 8  88072158.71846  21508105.840    21508107.404    21508104.670
        48.000          39.0004
 117837485.921 7  91821436.29345  22423715.632    22423712.813    22423714.671
        45.000          30.0004
 107602712.636 8  83846271.60847  20476113.800    20476111.382    20476113.274
        51.000          44.0004
 118516829.691 7  92350782.18745  22552996.079    22552993.968    22552994.453
        44.000          31.0004
 114845609.236 7  89490093.50246  21854381.884    21854381.289    21854380.284
        47.000          36.0004
 131123737.645 6 102174347.37342  24952015.118    24952014.430    24952013.502
        39.000          13.0004
 124855731.218 4                  23759255.805
        29.000
 13  1  1  0 17  0.0000000  0  9G11G20G01G14G31G22G32G23G25
 113955921.451 8  88796823.50546  21685078.448    21685076.266    21685077.543
        49.000          37.0004
 123834740.156 6  96494594.70243  23564960.692    23564958.024    23564959.619
        40.000          19.0004
 112938172.489 7  88003787.18846  21491408.834    21491410.231    21491407.772
        47.000          39.0004
 117865040.877 7  91842907.69045  22428959.364    22428957.358    22428958.236
        44.000          30.0004
 107525585.771 8  83786172.78847  20461437.138    20461434.778    20461436.488
        51.000          44.0004
 118536733.632 7  92366291.71245  22556784.614    22556780.556    22556782.390
        45.000          32.0004
 114749279.335 7  89415031.28246  21836051.189    21836050.075    21836049.434
        47.000          37.0004
 131002393.849 6 102079793.85242  24928924.866    24928922.797    24928923.233
        41.000          15.0004
 135813559.630 4                  25844461.130
        28.000
 13  1  1  0 17 30.0000000  0  9G11G20G01G14G31G22G32G23G25
 113932846.866 8  88778843.33246  21680687.364    21680685.463    21680686.441
        48.000          36.0004
 123702130.176 6  96391262.34943  23539725.390    23539724.168    23539724.619
        40.000          19.0004
 112850960.755 7  87935830.01246  21474812.928    21474814.067    21474811.688
        47.000          39.0004
 117892666.952 7  91864434.52145  22434216.646    22434214.074    22434215.598
        44.000          30.0004
 107449049.310 8  83726534.03147  20446872.683    20446870.401    20446872.014
        51.000          44.0004
 118556873.590 7  92381985.16845  22560617.057    22560612.623    22560615.310
        45.000          31.0004
 114653083.656 8  89340073.64746  21817745.667    21817744.182    21817744.193
        48.000          36.0004
 130881166.675 6 101985331.30842  24905855.240    24905854.215    24905854.766
        40.000          15.0004
 127866789.414 4                  24332241.060
        29.000
 13  1  1  0 18  0.0000000  0  8G11G20G01G14G31G22G32G23
 113910308.531 8  88761281.01246  21676398.825    21676396.571    21676397.991
        49.000          37.0004
 123569548.208 6  96287951.84343  23514496.727    23514494.073    23514494.260
        40.000          20.0004
 112764282.283 8  87868288.37246  21458318.435    21458319.958    21458317.368
        48.000          39.0004
 117920362.828 7  91886015.73945  22439487.078    22439485.151    22439485.868
        45.000          30.0004
 107373104.280 8  83667356.12447  20432420.515    20432418.358    20432419.986
        50.000          44.0004
 118577249.995 7  92397862.85845  22564494.774    22564490.329    22564493.064
        45.000          31.0004
 114557023.148 8  89265221.33646  21799465.935    21799464.739    21799464.843
        48.000          36.0004
 130760056.088 6 101890959.64442  24882809.192    24882807.234    24882807.195
        41.000          17.0004
 13  1  1  0 18 30.0000000  0  9G11G20G01G14G31G22G32G23G25
 113888306.056 8  88744136.24246  21672211.736    21672209.013    21672210.648
        48.000          36.0004
 123436996.509 6  96184664.93143  23489271.208    23489271.158    23489269.840
        38.000          21.0004
 112678139.808 8  87801164.38346  21441926.590    21441927.473    21441925.121
        48.000          39.0004
 117948128.071 7  91907651.00545  22444771.162    22444767.173    22444769.623
        45.000          30.0004
 107297752.381 8  83608640.40447  20418081.494    20418079.302    20418080.869
        50.000          44.0004
 118597863.582 7  92413925.39145  22568417.581    22568412.439    22568416.239
        47.000          32.0004
 114461099.804 8  89190475.90346  21781212.753    21781211.354    21781211.193
        48.000          37.0004
 130639063.376 6 101796679.76642  24859784.764    24859782.728    24859783.739
        41.000          17.0004
 121427081.339 4                  23106805.242
        28.000
 13  1  1  0 19  0.0000000  0  9G11G20G01G14G31G22G32G23G25
 113866836.291 8  88727406.57846  21668126.473    21668123.799    21668125.686
        49.000          37.0004
 123304474.713 6  96081401.33143  23464053.200    23464052.985    23464052.098
        38.000          21.0004
 112592533.089 7  87734457.87346  21425635.412    21425637.116    21425634.567
        47.000          39.0004
 117975959.831 7  91929338.11844  22450066.970    22450064.048    22450065.963
        45.000          29.0004
 107222992.687 8  83550386.14247  20403855.388    20403853.093    20403854.800
        49.000          44.0004
 118618712.456 7  92430171.24745  22572384.760    22572380.621    22572383.020
        46.000          32.0004
 114365312.761 8  89115836.69546  21762984.908    21762983.457    21762983.362
        48.000          37.0004
 130518186.883 6 101702490.47243  24836782.067    24836781.915    24836781.307
        40.000          18.0004
 118207873.436 4                  22494210.239
        27.000
 13  1  1  0 19 30.0000000  0  9G11G20G01G14G31G22G32G23G25
 113845896.822 8  88711090.12446  21664141.268    21664139.565    21664140.590
        49.000          37.0004
 123171982.776 6  95978160.97443  23438841.774    23438840.464    23438840.235
        39.000          21.0004
 112507462.589 8  87668169.19546  21409447.344    21409448.476    21409446.086
        48.000          39.0004
 118003855.781 7  91951075.23045  22455375.495    22455372.774    22455374.677
        44.000          30.0004
 107148825.059 8  83492593.22047  20389741.718    20389739.203    20389740.971
        51.000          44.0004
 118639795.472 7  92446599.52845  22576396.470    22576392.468    22576394.965
        45.000          32.0004
 114269661.978 8  89041303.64846  21744783.350    21744781.775    21744782.155
        48.000          37.0004
 130397425.359 6 101608390.75843  24813802.918    24813799.711    24813801.191
        40.000          18.0004
 138620405.028 5                  26378586.061
        34.000
 13  1  1  0 20  0.0000000  0  8G11G20G01G14G31G22G32G23
 113825489.019 8  88695187.95546  21660258.012    21660255.455    21660257.365
        49.000          37.0004
 123039524.523 6  95874946.83243  23413636.232    23413633.996    23413633.334
        40.000          21.0004
 112422932.557 8  87602301.66146  21393361.527    21393363.087    21393360.613
        48.000          39.0004
 118031817.454 7  91972863.54945  22460696.057    22460693.549    22460694.512
        45.000          30.0004
 107075253.138 8  83435264.49547  20375741.079    20375739.029    20375740.660
        51.000          44.0004
 118661115.328 7  92463212.39345  22580454.080    22580449.110    22580452.324
        46.000          31.0004
 114174151.086 8  88966879.60146  21726608.398    21726606.671    21726606.802
        49.000          37.0004
 130276781.854 6 101514382.98943  24790844.580    24790842.993    24790843.215
        39.000          18.0004
 13  1  1  0 20 30.0000000  0  9G11G20G01G14G31G22G32G25G23
 113805612.530 8  88679699.80046  21656475.845    21656473.002    21656474.692
        49.000          37.0004
 122907101.881 6  95771760.45943  23388436.495    23388435.216    23388435.470
        41.000          21.0004
 112338945.359 7  87536857.12246  21377379.282    21377380.743    21377378.239
        47.000          39.0004
 118059844.429 7  91994702.77044  22466029.325    22466027.850    22466028.156
        45.000          29.0004
 107002278.139 8  83378400.89247  20361854.812    20361852.257    20361854.024
        52.000          44.0004
 118682672.547 7  92480010.23545  22584555.093    22584551.879    22584553.340
        45.000          31.0004
 114078781.856 8  88892565.95246  21708459.915    21708458.232    21708458.312
        48.000          37.0004
 129033374.102 6 100545482.53741  24554234.540    24554234.317    24554232.330
        38.000          10.0004
 130156257.164 6 101420467.83642  24767907.032    24767907.522    24767906.116
        37.000          16.0004
 13  1  1  0 21  0.0000000  0 10G11G20G01G14G30G31G22G32G25G23
 113786263.036 8  88664622.29446  21652793.478    21652790.931    21652792.868
        48.000          37.0004
 122774713.479 6  95668600.74343  23363243.811    23363243.305    23363242.230
        40.000          22.0004
 112255499.688 8  87471834.55046  21361500.113    21361501.849    21361499.472
        49.000          39.0004
 118087932.806 7  92016589.83144  22471374.782    22471371.318    22471373.304
        45.000          29.0004
 132940701.417 5 103590155.9424   25297774.248    25297773.066    25297771.780
        35.000           1.0004
 106929898.485 8  83322001.19447  20348081.277    20348078.609    20348080.666
        51.000          44.0004
 118704464.503 7  92496990.97145  22588702.442    22588698.015    22588700.300
        44.000          30.0004
 113983552.291 8  88818361.13546  21690337.830    21690336.966    21690336.821
        48.000          37.0004
 128966782.685 6 100493593.18242  24541561.208    24541563.719    24541560.678
        36.000          13.0004
 130035848.710 6 101326643.23242  24744995.814    24744993.790    24744994.360
        38.000          16.0004
 13  1  1  0 21 30.0000000  0 10G11G20G01G14G30G31G22G32G25G23
 113767436.320 8  88649952.13746  21649210.788    21649208.580    21649209.993
        48.000          36.0004
 122642357.880 6  95565466.55043  23338058.106    23338055.580    23338055.857
        41.000          22.0004
 112172594.387 7  87407233.04146  21345724.034    21345725.422    21345723.215
        47.000          40.0004
 118116078.366 7  92038521.45144  22476730.042    22476727.895    22476728.647
        44.000          29.0004
 132808054.187 5 103486794.53341  25272532.300    25272534.633    25272530.260
        35.000           9.0004
 106858112.205 8  83266063.86547  20334420.660    20334418.117    20334420.211
        49.000          44.0004
 118726488.117 7  92514152.21845  22592892.579    22592889.108    22592891.281
        44.000          30.0004
 113888460.930 8  88744264.01146  21672242.874    21672241.760    21672241.229
        49.000          37.0004
 128900634.711 5 100442049.39942  24528973.947    24528977.341    24528972.182
        34.000          13.0004
 129915553.965 6 101232907.20142  24722105.074    24722103.124    24722104.058
        38.000          15.0004
 13  1  1  0 22  0.0000000  0 10G11G20G01G14G30G31G22G32G25G23
 113749135.857 8  88635692.04446  21645728.350    21645726.252    21645727.420
        49.000          36.0004
 122510041.030 6  95462362.59343  23312877.748    23312876.828    23312875.976
        39.000          22.0004
 112090235.665 8  87343057.44746  21330051.739    21330052.919    21330050.606
        48.000          39.0004
 118144284.874 7  92060500.56144  22482097.781    22482095.201    22482095.939
        45.000          29.0004
 132675235.994 5 103383299.92241  25247257.105    25247259.636    25247255.781
        35.000          10.0004
 106786924.728 8  83210593.13847  20320874.004    20320871.870    20320873.600
        52.000          44.0004
 118748748.170 7  92531497.71545  22597129.230    22597125.679    22597127.397
        44.000          30.0004
 113793513.466 8  88670279.01446  21654174.748    21654173.881    21654173.160
        49.000          37.0004
 128834936.908 5 100390856.34742  24516471.225    24516473.382    24516470.327
        35.000          13.0004
 129795377.684 6 101139263.53342  24699235.256    24699234.519    24699234.291
        39.000          15.0004
 13  1  1  0 22 30.0000000  0 10G11G20G01G14G30G31G22G32G25G23
 113731359.014 8  88621839.97246  21642345.447    21642343.466    21642344.673
        49.000          36.0004
 122377763.069 6  95359288.94443  23287705.822    23287704.753    23287704.542
        39.000          21.0004
 112008423.888 8  87279308.03946  21314483.495    21314484.728    21314482.354
        49.000          40.0004
 118172550.300 7  92082525.57744  22487476.170    22487474.269    22487475.655
        44.000          29.0004
 132542248.541 5 103279673.34341  25221951.071    25221953.310    25221950.259
        35.000          10.0004
 106716335.423 8  83155588.51347  20307441.736    20307439.067    20307441.174
        51.000          44.0004
 118771243.566 7  92549026.57444  22601409.875    22601406.675    22601407.748
        44.000          29.0004
 113698709.793 8  88596406.06646  21636134.254    21636133.054    21636132.459
        48.000          37.0004
 128769689.928 6 100340014.60342  24504057.220    24504057.773    24504054.886
        37.000          13.0004
 129675319.072 6 101045711.53042  24676389.079    24676387.694    24676388.315
        40.000          17.0004
 13  1  1  0 23  0.0000000  0 10G11G20G01G14G30G31G22G32G25G23
 113714101.047 8  88608392.21646  21639061.324    21639059.001    21639060.518
        48.000          36.0004
 122245521.772 6  95256243.83143  23262541.789    23262539.217    23262539.852
        40.000          22.0004
 111927157.058 8  87215983.25946  21299019.267    21299020.471    21299018.214
        48.000          40.0004
 118200869.498 7  92104592.50344  22492865.577    22492863.412    22492864.042
        43.000          29.0004
 132409090.259 6 103175913.67741  25196612.853    25196613.582    25196612.205
        37.000          10.0004
 106646341.704 8  83101047.98047  20294122.434    20294119.638    20294121.777
        51.000          45.0004
 118793970.474 7  92566735.84144  22605735.139    22605731.560    22605732.973
        44.000          29.0004
 113604047.497 8  88522643.26946  21618120.272    21618119.188    21618118.830
        49.000          37.0004
 128704891.915 5 100289522.68442  24491723.859    24491725.602    24491723.595
        34.000          13.0004
 129555374.649 6 100952248.48842  24653564.325    24653562.938    24653562.572
        39.000          17.0004
 13  1  1  0 23 30.0000000  0 10G11G20G01G14G30G31G22G32G25G23
 113697359.730 7  88595347.04445  21635875.139    21635872.675    21635874.378
        47.000          35.0004
 122113317.899 6  95153227.87043  23237384.022    23237380.965    23237381.883
        40.000          22.0004
 111846435.937 8  87153083.70646  21283658.211    21283659.545    21283657.078
        49.000          40.0004
 118229241.022 7  92126700.19744  22498264.802    22498262.174    22498263.251
        44.000          29.0004
 132275763.356 6 103072022.63141  25171240.490    25171242.343    25171240.229
        37.000          10.0004
 106576943.744 8  83046971.69047  20280916.124    20280913.468    20280915.626
        51.000          44.0004
 118816928.249 7  92584625.00144  22610104.081    22610099.772    22610102.675
        44.000          29.0004
 113509526.899 7  88448990.90146  21600133.803    21600132.139    21600132.406
        47.000          37.0004
 128640543.966 6 100239381.42542  24479480.109    24479481.066    24479479.225
        37.000          14.0004
 129435543.806 6 100858873.95243  24630760.220    24630759.329    24630760.567
        39.000          18.0004
 13  1  1  0 24  0.0000000  0 10G11G20G01G14G30G31G22G32G25G23
 113681133.133 8  88582702.95546  21632787.491    21632785.260    21632786.450
        48.000          36.0004
 121981152.041 6  95050241.58243  23212233.278    23212231.952    23212231.024
        40.000          22.0004
 111766261.308 8  87090610.00646  21268401.096    21268402.776    21268399.935
        48.000          40.0004
 118257663.076 7  92148847.26244  22503672.788    22503670.345    22503671.640
        44.000          29.0004
 132142269.524 6 102968001.52842  25145837.966    25145838.651    25145836.003
        36.000          13.0004
 106508141.423 8  82993359.54247  20267823.288    20267820.747    20267822.841
        52.000          44.0004
 118840116.241 7  92602693.57345  22614516.633    22614512.608    22614514.338
        45.000          30.0004
 113415148.397 8  88375449.25246  21582174.386    21582172.298    21582173.043
        50.000          37.0004
 128576647.103 5 100189591.72442  24467320.665    24467320.593    24467319.364
        34.000          13.0004
 129315826.184 6 100765587.66742  24607979.282    24607977.467    24607978.920
        39.000          17.0004
 13  1  1  0 24 30.0000000  0 10G11G20G01G14G30G31G22G32G25G23
 113665418.331 8  88570457.65645  21629797.398    21629794.700    21629796.388
        48.000          35.0004
 121849023.996 6  94947284.69043  23187090.011    23187088.688    23187088.322
        40.000          22.0004
 111686633.278 8  87028562.20246  21253248.799    21253249.921    21253247.517
        49.000          40.0004
 118286133.078 7  92171031.70744  22509090.079    22509087.456    22509089.357
        43.000          29.0004
 132008610.058 6 102863851.40442  25120403.092    25120404.432    25120401.559
        37.000          13.0004
 106439933.870 8  82940210.83147  20254843.978    20254841.565    20254843.406
        53.000          45.0004
 118863532.718 7  92620940.15245  22618972.072    22618968.171    22618969.937
        44.000          30.0004
 113320911.771 8  88302018.14546  21564241.685    21564239.876    21564239.832
        50.000          38.0004
 128513201.851 6 100140153.97542  24455248.059    24455248.317    24455246.684
        36.000          13.0004
 129196220.658 6 100672388.72642  24585219.813    24585217.898    24585218.635
        39.000          17.0004
 13  1  1  0 25  0.0000000  0 10G11G20G01G14G30G31G22G32G25G23
 115225637.349 8  89786212.74245  21926696.257    21926693.880    21926695.349
        48.000          35.0004
 123292362.669 6  96071964.25843  23461748.360    23461746.376    23461746.852
        41.000          22.0004
 113182978.785 8  88194545.74246  21537993.771    21537995.369    21537992.872
        49.000          40.0004
 119890072.101 7  93420854.33844  22814309.577    22814307.011    22814309.787
        44.000          29.0004
 133450214.527 6 103987179.58942  25394732.569    25394732.543    25394730.055
        37.000          13.0004
 107947746.973 8  84115130.17747  20541770.984    20541768.515    20541770.441
        50.000          44.0004
 120462599.770 7  93866966.41545  22923264.705    22923260.776    22923263.158
        44.000          30.0004
 114802244.126 8  89456303.14246  21846129.608    21846128.368    21846128.372
        48.000          38.0004
 130025634.765 5 101318673.16842  24743052.540    24743054.979    24743052.726
        34.000          12.0004
 130652154.051 6 101806882.41642  24862273.779    24862272.498    24862272.367
        39.000          17.0004
 13  1  1  0 25 30.0000000  0 10G11G20G01G14G30G31G22G32G25G23
 115210946.540 8  89774765.36345  21923901.208    21923899.037    21923900.133
        48.000          35.0004
 123160319.690 6  95969073.69143  23436620.758    23436619.468    23436619.466
        39.000          22.0004
 113104453.102 8  88133356.92146  21523050.542    21523052.373    21523049.584
        50.000          40.0004
 119918639.989 7  93443115.04644  22819746.245    22819743.699    22819744.679
        44.000          28.0004
 133316236.208 6 103882780.93842  25369235.091    25369236.668    25369234.182
        36.000          13.0004
 107880735.940 8  84062913.82647  20529019.291    20529016.576    20529018.771
        51.000          44.0004
 120486478.267 7  93885573.01645  22927808.295    22927804.644    22927805.978
        43.000          30.0004
 114708299.554 8  89383099.61946  21828252.813    21828251.383    21828251.381
        49.000          38.0004
 129963102.585 5 101269946.86142  24731152.972    24731155.729    24731151.617
        33.000          12.0004
 130532777.581 6 101713861.96342  24839557.552    24839556.141    24839557.329
        40.000          17.0004
 13  1  1  0 26  0.0000000  0 10G11G20G01G14G30G31G22G32G25G23
 115196765.314 8  89763715.06845  21921202.657    21921200.669    21921201.685
        48.000          35.0004
 123028321.428 6  95866218.00043  23411502.671    23411501.448    23411501.421
        41.000          22.0004
 113026480.537 8  88072599.10046  21508213.083    21508214.561    21508211.880
        48.000          40.0004
 119947255.117 7  93465412.55244  22825191.229    22825189.300    22825189.810
        44.000          28.0004
 133182101.914 5 103778260.77642  25343711.938    25343712.223    25343708.603
        35.000          13.0004
 107814323.902 8  84011164.22647  20516381.413    20516378.920    20516381.059
        50.000          44.0004
 120510587.391 7  93904359.33545  22932396.676    22932392.845    22932394.185
        44.000          30.0004
 114614502.411 8  89310010.97446  21810403.889    21810402.234    21810402.343
        49.000          38.0004
 129901029.234 6 101221578.07042  24719341.946    24719342.053    24719340.139
        36.000          13.0004
 130413515.640 6 101620930.76043  24816862.360    24816861.711    24816861.645
        41.000          19.0004
 13  1  1  0 26 30.0000000  0 10G11G20G01G14G30G31G22G32G25G23
 115183093.170 8  89753061.45546  21918601.472    21918599.266    21918600.316
        49.000          36.0004
 122896369.919 6  95763398.73843  23386391.952    23386390.679    23386391.026
        40.000          23.0004
 112949063.402 8  88012274.08646  21493480.851    21493482.521    21493479.940
        49.000          40.0004
 119975917.541 7  93487746.91944  22830645.509    22830642.997    22830644.327
        42.000          28.0004
 133047815.697 6 103673622.20142  25318157.809    25318158.467    25318155.790
        36.000          13.0004
 107748512.354 8  83959882.54747  20503857.705    20503855.311    20503857.300
        50.000          45.0004
 120534928.098 7  93923326.13944  22937028.695    22937024.054    22937026.710
        44.000          28.0004
 114520854.958 8  89237038.97046  21792583.267    21792581.961    21792581.721
        49.000          38.0004
 129839417.361 6 101173568.87842  24707619.305    24707618.822    24707617.182
        39.000          13.0004
 130294369.774 6 101528089.95943  24794190.329    24794187.244    24794189.251
        41.000          19.0004
 13  1  1  0 27  0.0000000  0 10G11G20G01G14G30G31G22G32G25G23
 115169928.406 7  89742803.21246  21916096.029    21916093.852    21916094.629
        47.000          36.0004
 122764466.429 6  95660616.89743  23361292.252    23361290.206    23361290.889
        40.000          23.0004
 112872203.019 8  87952382.90746  21478854.888    21478855.999    21478854.016
        49.000          40.0004
 120004625.882 7  93510117.06844  22836108.267    22836106.568    22836107.199
        43.000          28.0004
 132913379.719 6 103568866.98942  25292576.246    25292576.273    25292572.982
        38.000          13.0004
 107683302.342 8  83909069.60347  20491449.127    20491446.233    20491448.272
        52.000          44.0004
 120559500.167 7  93942473.21844  22941704.085    22941700.654    22941702.763
        44.000          29.0004
 114427358.075 8  89164184.29846  21774791.115    21774789.719    21774790.012
        50.000          38.0004
 129778268.667 6 101125920.64742  24695982.558    24695981.525    24695980.714
